Time, Latitude(DD), Longitude(DD), Latitude(m), Longitude(m), Altitude(m), Roll(deg), Pitch(deg), Yaw(deg)
1508313130.000000, 48.237833, 16.331775, 5343592.500000, 598885.937500, 281.399994, -0.405982, -1.219002, -74.273064
1508313131.000000, 48.237837, 16.331768, 5343592.500000, 598885.437500, 279.000000, -0.423511, -1.243466, -74.284813
1508313132.000000, 48.237838, 16.331763, 5343593.000000, 598885.062500, 276.700012, -0.445790, -1.224755, -74.205414
1508313133.000000, 48.237837, 16.331757, 5343592.500000, 598884.562500, 275.700012, -0.362417, -1.213734, -74.326607
1508313134.000000, 48.237840, 16.331750, 5343593.000000, 598884.062500, 273.700012, -0.415069, -1.235443, -74.286560
1508313135.000000, 48.237840, 16.331745, 5343593.000000, 598883.750000, 273.500000, -0.361184, -1.229160, -74.324409
1508313136.000000, 48.237820, 16.331745, 5343591.000000, 598883.750000, 281.500000, -0.411238, -1.197060, -74.276283
1508313137.000000, 48.237822, 16.331738, 5343591.000000, 598883.250000, 281.299988, -0.430426, -1.221499, -74.288406
1508313138.000000, 48.237825, 16.331733, 5343591.500000, 598882.875000, 281.299988, -0.391662, -1.190973, -74.260818
1508313139.000000, 48.237833, 16.331732, 5343592.000000, 598882.750000, 281.600006, -0.398824, -1.239722, -74.280144
1508313140.000000, 48.237838, 16.331723, 5343593.000000, 598882.125000, 281.100006, -0.400051, -1.243721, -74.276184
1508313141.000000, 48.237845, 16.331717, 5343593.500000, 598881.625000, 280.000000, -0.377698, -1.196261, -74.271385
1508313142.000000, 48.237838, 16.331718, 5343593.000000, 598881.750000, 279.000000, -0.389578, -1.235842, -74.331017
1508313143.000000, 48.237833, 16.331717, 5343592.000000, 598881.625000, 278.600006, -0.388651, -1.193728, -74.274178
1508313144.000000, 48.237832, 16.331715, 5343592.000000, 598881.500000, 278.000000, -0.383881, -1.212626, -74.318901
1508313145.000000, 48.237830, 16.331715, 5343592.000000, 598881.500000, 277.799988, -0.435637, -1.260557, -74.291656
1508313146.000000, 48.237830, 16.331713, 5343592.000000, 598881.375000, 277.100006, -0.392081, -1.192861, -74.271873
1508313147.000000, 48.237825, 16.331713, 5343591.500000, 598881.375000, 275.799988, -0.370408, -1.220680, -74.313622
1508313148.000000, 48.237822, 16.331713, 5343591.000000, 598881.375000, 274.799988, -0.373828, -1.217118, -74.293945
1508313149.000000, 48.237815, 16.331707, 5343590.000000, 598880.937500, 274.000000, -0.403964, -1.195136, -74.282188
1508313150.000000, 48.237812, 16.331708, 5343590.000000, 598881.062500, 272.899994, -0.396021, -1.197885, -74.268707
1508313151.000000, 48.237810, 16.331708, 5343589.500000, 598881.062500, 272.500000, -0.392832, -1.222817, -74.273293
1508313153.000000, 48.237808, 16.331705, 5343589.500000, 598880.812500, 272.299988, -0.389771, -1.201323, -74.272102
1508313154.000000, 48.237803, 16.331708, 5343589.000000, 598881.062500, 272.600006, -0.391552, -1.191450, -74.266884
1508313155.000000, 48.237793, 16.331712, 5343587.500000, 598881.312500, 275.000000, -0.373374, -1.228345, -74.302246
1508313156.000000, 48.237787, 16.331713, 5343587.000000, 598881.500000, 275.000000, -0.386469, -1.231075, -74.262260
1508313157.000000, 48.237780, 16.331713, 5343586.500000, 598881.500000, 276.399994, -0.408208, -1.236261, -74.271255
1508313158.000000, 48.237777, 16.331712, 5343586.000000, 598881.375000, 275.600006, -0.429027, -1.220998, -74.294434
1508313159.000000, 48.237770, 16.331717, 5343585.000000, 598881.750000, 276.899994, -0.401120, -1.170524, -74.262024
1508313160.000000, 48.237767, 16.331722, 5343585.000000, 598882.125000, 275.299988, -0.349418, -1.250499, -74.258247
1508313160.000000, 48.237763, 16.331723, 5343584.500000, 598882.250000, 275.899994, -0.453935, -1.210330, -74.280800
1508313161.000000, 48.237757, 16.331737, 5343583.500000, 598883.250000, 276.899994, -0.414954, -1.211399, -74.263405
1508313162.000000, 48.237753, 16.331748, 5343583.500000, 598884.125000, 278.000000, -0.421190, -1.219174, -74.282074
1508313163.000000, 48.237750, 16.331758, 5343583.000000, 598884.875000, 278.600006, -0.374979, -1.251926, -74.333061
1508313164.000000, 48.237755, 16.331765, 5343583.500000, 598885.375000, 276.600006, -0.419663, -1.233188, -74.280922
1508313165.000000, 48.237763, 16.331773, 5343584.500000, 598886.000000, 277.000000, -0.379176, -1.208061, -74.267799
1508313166.000000, 48.237775, 16.331782, 5343586.000000, 598886.562500, 274.500000, -0.337819, -1.240658, -74.335075
1508313167.000000, 48.237782, 16.331783, 5343586.500000, 598886.687500, 274.700012, -0.392116, -1.253337, -74.268837
1508313168.000000, 48.237795, 16.331792, 5343588.000000, 598887.250000, 272.899994, -0.390454, -1.247607, -74.267914
1508313169.000000, 48.237800, 16.331797, 5343588.500000, 598887.625000, 273.700012, -0.383137, -1.220977, -74.265877
1508313170.000000, 48.237805, 16.331798, 5343589.000000, 598887.750000, 274.000000, -0.395178, -1.229407, -74.389603
1508313171.000000, 48.237812, 16.331798, 5343590.000000, 598887.750000, 273.399994, -0.415784, -1.214336, -74.282730
1508313172.000000, 48.237817, 16.331805, 5343590.500000, 598888.250000, 274.299988, -0.415453, -1.232870, -74.277725
1508313173.000000, 48.237827, 16.331800, 5343591.500000, 598887.812500, 273.500000, -0.375949, -1.225969, -74.257370
1508313174.000000, 48.237830, 16.331805, 5343592.000000, 598888.187500, 274.299988, -0.405944, -1.191024, -74.419655
1508313175.000000, 48.237830, 16.331817, 5343592.000000, 598889.062500, 273.700012, -0.391569, -1.243449, -74.250076
1508313176.000000, 48.237830, 16.331828, 5343592.000000, 598889.937500, 274.600006, -0.433651, -1.232938, -74.287659
1508313177.000000, 48.237828, 16.331840, 5343592.000000, 598890.812500, 274.299988, -0.425676, -1.226031, -74.272057
1508313178.000000, 48.237820, 16.331850, 5343591.000000, 598891.562500, 275.600006, -0.403722, -1.219028, -74.269302
1508313179.000000, 48.237820, 16.331872, 5343591.000000, 598893.187500, 275.500000, -0.404121, -1.227605, -74.278511
1508313180.000000, 48.237817, 16.331893, 5343590.500000, 598894.750000, 276.500000, -0.388055, -1.214371, -74.407593
1508313181.000000, 48.237818, 16.331920, 5343591.000000, 598896.750000, 276.500000, -0.396983, -1.240732, -74.265366
1508313182.000000, 48.237825, 16.331933, 5343591.500000, 598897.750000, 276.100006, -0.402807, -1.239836, -74.396858
1508313183.000000, 48.237837, 16.331943, 5343593.000000, 598898.437500, 276.000000, -0.397494, -1.226345, -74.256210
1508313184.000000, 48.237842, 16.331950, 5343593.500000, 598898.937500, 276.399994, -0.442125, -1.216946, -74.393944
1508313185.000000, 48.237837, 16.331952, 5343593.000000, 598899.062500, 277.799988, -0.397429, -1.232268, -74.267036
1508313186.000000, 48.237837, 16.331955, 5343593.000000, 598899.312500, 278.000000, -0.377003, -1.229333, -74.264015
1508313187.000000, 48.237837, 16.331958, 5343593.000000, 598899.562500, 278.000000, -0.388050, -1.222153, -74.395386
1508313188.000000, 48.237835, 16.331968, 5343592.500000, 598900.312500, 277.799988, -0.393641, -1.209725, -74.278893
1508313189.000000, 48.237833, 16.331978, 5343592.500000, 598901.062500, 277.600006, -0.380428, -1.214995, -74.258247
1508313190.000000, 48.237832, 16.331982, 5343592.500000, 598901.312500, 277.299988, -0.390909, -1.214623, -74.222977
1508313191.000000, 48.237835, 16.331988, 5343592.500000, 598901.812500, 276.899994, -0.403623, -1.188724, -74.270706
1508313192.000000, 48.237835, 16.331988, 5343592.500000, 598901.812500, 276.600006, -0.443560, -1.171014, -74.233475
1508313193.000000, 48.237833, 16.331995, 5343592.500000, 598902.312500, 276.100006, -0.365395, -1.175853, -74.204773
1508313194.000000, 48.237827, 16.332005, 5343592.000000, 598903.062500, 275.500000, -0.413748, -1.186643, -74.301956
1508313195.000000, 48.237818, 16.332018, 5343591.000000, 598904.062500, 274.799988, -0.419924, -1.167385, -74.183434
1508313196.000000, 48.237817, 16.332032, 5343591.000000, 598905.062500, 274.200012, -0.417064, -1.173046, -74.278076
1508313197.000000, 48.237815, 16.332042, 5343590.500000, 598905.812500, 273.600006, -0.475579, -1.202528, -74.032936
1508313198.000000, 48.237815, 16.332047, 5343590.500000, 598906.187500, 272.899994, -0.439530, -1.198130, -74.044289
1508313199.000000, 48.237818, 16.332045, 5343591.000000, 598906.062500, 272.100006, -0.482608, -1.169659, -74.112244
1508313200.000000, 48.237817, 16.332043, 5343591.000000, 598905.937500, 271.500000, -0.415761, -1.202068, -74.210945
1508313201.000000, 48.237810, 16.332045, 5343590.000000, 598906.062500, 270.799988, -0.399371, -1.211316, -74.246162
1508313203.000000, 48.237805, 16.332045, 5343589.500000, 598906.062500, 270.200012, -0.384857, -1.192392, -74.227158
1508313204.000000, 48.237805, 16.332040, 5343589.500000, 598905.687500, 269.600006, -0.426953, -1.200764, -74.136009
1508313205.000000, 48.237800, 16.332040, 5343589.000000, 598905.687500, 269.000000, -0.438982, -1.162247, -74.075317
1508313206.000000, 48.237802, 16.332032, 5343589.000000, 598905.062500, 268.700012, -0.383336, -1.202734, -74.162346
1508313207.000000, 48.237795, 16.332030, 5343588.500000, 598904.937500, 268.600006, -0.416455, -1.192892, -73.964981
1508313208.000000, 48.237790, 16.332035, 5343588.000000, 598905.375000, 268.100006, -0.369123, -1.209664, -74.200745
1508313209.000000, 48.237787, 16.332042, 5343587.500000, 598905.875000, 267.799988, -0.393745, -1.198911, -74.311615
1508313210.000000, 48.237782, 16.332045, 5343587.000000, 598906.125000, 267.600006, -0.431155, -1.192307, -74.118187
1508313210.000000, 48.237780, 16.332045, 5343586.500000, 598906.125000, 267.399994, -0.452011, -1.182149, -74.197395
1508313211.000000, 48.237773, 16.332045, 5343586.000000, 598906.125000, 267.200012, -0.392931, -1.186501, -74.262672
1508313212.000000, 48.237775, 16.332043, 5343586.000000, 598906.000000, 266.500000, -0.387306, -1.194542, -74.256805
1508313213.000000, 48.237775, 16.332047, 5343586.000000, 598906.250000, 265.799988, -0.378072, -1.188895, -74.254402
1508313214.000000, 48.237773, 16.332043, 5343586.000000, 598906.000000, 265.399994, -0.373796, -1.200950, -74.255432
1508313215.000000, 48.237772, 16.332043, 5343586.000000, 598906.000000, 264.600006, -0.413575, -1.233049, -74.207664
1508313216.000000, 48.237773, 16.332037, 5343586.000000, 598905.500000, 263.899994, -0.361054, -1.200755, -74.258362
1508313217.000000, 48.237772, 16.332027, 5343585.500000, 598904.750000, 262.799988, -0.394831, -1.232303, -74.267418
1508313218.000000, 48.237777, 16.332007, 5343586.500000, 598903.250000, 262.100006, -0.389447, -1.203477, -74.294632
1508313219.000000, 48.237782, 16.331995, 5343587.000000, 598902.375000, 261.500000, -0.387756, -1.192698, -74.261436
1508313220.000000, 48.237782, 16.331992, 5343587.000000, 598902.125000, 260.799988, -0.420594, -1.146901, -74.225060
1508313221.000000, 48.237787, 16.331980, 5343587.500000, 598901.250000, 260.000000, -0.460229, -1.123544, -73.994186
1508313222.000000, 48.237792, 16.331965, 5343588.000000, 598900.125000, 259.000000, -0.395279, -1.066173, -74.083435
1508313223.000000, 48.237793, 16.331960, 5343588.000000, 598899.750000, 258.500000, -0.261358, -1.144885, -73.768951
1508313224.000000, 48.237793, 16.331950, 5343588.000000, 598899.000000, 257.799988, 11.463251, -4.811583, -78.793900
1508313225.000000, 48.237792, 16.331947, 5343588.000000, 598898.812500, 256.899994, 14.773396, -6.164443, -80.712532
1508313226.000000, 48.237795, 16.331940, 5343588.000000, 598898.312500, 256.100006, 14.646176, -6.282391, -80.718147
1508313227.000000, 48.237800, 16.331927, 5343589.000000, 598897.312500, 255.399994, 15.405619, -6.131315, -80.654922
1508313228.000000, 48.237802, 16.331920, 5343589.000000, 598896.812500, 254.899994, 16.958702, -6.752388, -81.210793
1508313229.000000, 48.237800, 16.331922, 5343589.000000, 598896.937500, 254.600006, 20.281046, -7.547750, -82.317802
1508313230.000000, 48.237798, 16.331922, 5343588.500000, 598896.937500, 254.500000, 18.303600, -9.741874, -82.381760
1508313231.000000, 48.237802, 16.331922, 5343589.000000, 598896.937500, 254.500000, -8.180522, -16.411659, -74.669273
1508313232.000000, 48.237807, 16.331912, 5343589.500000, 598896.187500, 254.199997, -10.484811, 20.196218, -71.459740
1508313233.000000, 48.237815, 16.331900, 5343590.500000, 598895.250000, 253.699997, -2.861764, 22.865480, -71.157631
1508313234.000000, 48.237818, 16.331892, 5343591.000000, 598894.625000, 253.300003, 0.729629, 1.384840, -69.340698
1508313235.000000, 48.237822, 16.331887, 5343591.000000, 598894.250000, 253.000000, 11.604140, -31.063999, -73.768303
1508313236.000000, 48.237825, 16.331875, 5343591.500000, 598893.375000, 252.500000, 16.560944, -29.019165, -75.009827
1508313237.000000, 48.237830, 16.331872, 5343592.000000, 598893.125000, 252.000000, 3.921741, -14.339909, -68.467957
1508313238.000000, 48.237837, 16.331862, 5343593.000000, 598892.375000, 251.500000, -8.500200, -5.254031, -61.791565
1508313239.000000, 48.237838, 16.331850, 5343593.000000, 598891.500000, 250.899994, -1.542301, -9.173325, -62.130989
1508313240.000000, 48.237842, 16.331837, 5343593.500000, 598890.500000, 250.500000, 18.621233, -17.592596, -71.784225
1508313241.000000, 48.237845, 16.331820, 5343593.500000, 598889.250000, 250.300003, -5.302683, -1.632941, -64.359489
1508313242.000000, 48.237843, 16.331820, 5343593.500000, 598889.312500, 250.899994, -4.808491, -0.027593, -62.597790
1508313243.000000, 48.237842, 16.331827, 5343593.500000, 598889.750000, 251.600006, 7.261657, -3.395908, -67.611923
1508313244.000000, 48.237843, 16.331828, 5343593.500000, 598889.875000, 252.399994, 2.422977, 1.503037, -62.795601
1508313245.000000, 48.237842, 16.331830, 5343593.500000, 598890.000000, 253.199997, -0.360914, -1.004239, -63.117290
1508313246.000000, 48.237843, 16.331825, 5343593.500000, 598889.625000, 253.000000, -0.356183, -0.989991, -63.118610
1508313247.000000, 48.237842, 16.331822, 5343593.500000, 598889.437500, 253.000000, -0.343749, -0.987580, -63.343849
1508313248.000000, 48.237843, 16.331813, 5343593.500000, 598888.812500, 252.699997, -0.353007, -1.002132, -63.124825
1508313249.000000, 48.237840, 16.331798, 5343593.000000, 598887.687500, 252.500000, -0.347983, -1.032387, -63.356953
1508313250.000000, 48.237833, 16.331785, 5343592.500000, 598886.687500, 252.399994, -0.357999, -1.009389, -63.292419
1508313251.000000, 48.237827, 16.331775, 5343591.500000, 598886.000000, 252.500000, -0.371305, -1.026055, -63.123405
1508313253.000000, 48.237822, 16.331773, 5343591.000000, 598885.875000, 252.399994, -0.348150, -1.004825, -63.145626
1508313254.000000, 48.237813, 16.331762, 5343590.000000, 598885.000000, 252.199997, -0.353822, -1.015987, -63.137341
1508313255.000000, 48.237805, 16.331758, 5343589.000000, 598884.750000, 252.100006, -0.358637, -0.996060, -63.132347
1508313256.000000, 48.237802, 16.331763, 5343588.500000, 598885.125000, 252.100006, -0.355303, -1.020408, -63.128979
1508313257.000000, 48.237800, 16.331750, 5343588.500000, 598884.187500, 252.000000, -0.370897, -1.019916, -63.328762
1508313258.000000, 48.237798, 16.331748, 5343588.500000, 598884.062500, 251.699997, -0.357264, -1.040730, -63.068882
1508313259.000000, 48.237802, 16.331753, 5343588.500000, 598884.437500, 251.699997, -0.364384, -1.064631, -63.129478
1508313260.000000, 48.237800, 16.331763, 5343588.500000, 598885.187500, 251.899994, -0.367177, -1.017998, -63.140507
1508313260.000000, 48.237797, 16.331753, 5343588.000000, 598884.437500, 252.399994, -0.356479, -1.006939, -63.125233
1508313261.000000, 48.237788, 16.331757, 5343587.500000, 598884.687500, 252.500000, -0.380684, -1.058971, -63.085331
1508313262.000000, 48.237783, 16.331748, 5343586.500000, 598884.062500, 252.300003, -0.367542, -1.043947, -63.343262
1508313263.000000, 48.237788, 16.331752, 5343587.000000, 598884.312500, 251.899994, -0.375604, -1.060305, -63.328163
1508313264.000000, 48.237787, 16.331753, 5343587.000000, 598884.437500, 252.199997, -0.320291, -1.041920, -63.099133
1508313265.000000, 48.237785, 16.331755, 5343587.000000, 598884.562500, 252.600006, -0.366859, -1.040180, -63.140015
1508313267.000000, 48.237778, 16.331760, 5343586.000000, 598884.937500, 252.699997, -0.369950, -0.978387, -63.134708
1508313268.000000, 48.237765, 16.331773, 5343584.500000, 598885.937500, 253.399994, -0.397106, -1.035161, -63.203014
1508313269.000000, 48.237757, 16.331783, 5343584.000000, 598886.750000, 254.300003, -0.378376, -1.077121, -63.110619
1508313270.000000, 48.237753, 16.331775, 5343583.500000, 598886.125000, 254.500000, -0.416934, -1.057038, -63.139828
1508313271.000000, 48.237750, 16.331780, 5343583.000000, 598886.500000, 254.699997, -0.367685, -1.050713, -63.125885
1508313272.000000, 48.237747, 16.331780, 5343582.500000, 598886.500000, 254.699997, -0.399482, -1.026334, -63.142048
1508313273.000000, 48.237748, 16.331777, 5343583.000000, 598886.250000, 254.800003, -0.371210, -1.046704, -63.112282
1508313274.000000, 48.237752, 16.331777, 5343583.000000, 598886.250000, 255.100006, -0.347419, -1.060341, -63.123425
1508313275.000000, 48.237758, 16.331770, 5343584.000000, 598885.750000, 255.300003, -0.356987, -1.071359, -63.134754
1508313276.000000, 48.237760, 16.331762, 5343584.000000, 598885.125000, 255.399994, -0.416966, -1.066685, -63.135521
1508313277.000000, 48.237763, 16.331757, 5343584.500000, 598884.750000, 255.399994, -0.393042, -1.034232, -63.160473
1508313278.000000, 48.237763, 16.331750, 5343584.500000, 598884.250000, 255.300003, -0.403444, -1.031056, -63.147717
1508313279.000000, 48.237763, 16.331748, 5343584.500000, 598884.125000, 255.300003, -0.415052, -1.030548, -63.135319
1508313280.000000, 48.237763, 16.331748, 5343584.500000, 598884.125000, 255.600006, -0.392460, -1.044863, -63.133438
1508313281.000000, 48.237760, 16.331750, 5343584.000000, 598884.250000, 255.699997, -0.386880, -1.048259, -63.404217
1508313282.000000, 48.237760, 16.331750, 5343584.000000, 598884.250000, 255.899994, -0.395430, -1.037874, -63.245083
1508313283.000000, 48.237762, 16.331752, 5343584.500000, 598884.375000, 256.000000, -0.389477, -1.038056, -63.132812
1508313284.000000, 48.237773, 16.331757, 5343585.500000, 598884.687500, 256.200012, -0.414266, -1.061748, -63.149059
1508313285.000000, 48.237772, 16.331760, 5343585.500000, 598884.937500, 256.100006, -0.409035, -1.056944, -63.162449
1508313286.000000, 48.237772, 16.331760, 5343585.500000, 598884.937500, 256.100006, -0.423705, -1.042542, -63.147743
1508313287.000000, 48.237772, 16.331762, 5343585.500000, 598885.062500, 256.100006, -0.418418, -1.046036, -63.147820
1508313288.000000, 48.237772, 16.331762, 5343585.500000, 598885.062500, 256.100006, -0.360511, -1.035445, -63.110607
1508313289.000000, 48.237772, 16.331762, 5343585.500000, 598885.062500, 256.100006, -0.378230, -1.049450, -63.118221
1508313290.000000, 48.237772, 16.331762, 5343585.500000, 598885.062500, 256.100006, -0.360808, -1.054058, -63.321434
1508313291.000000, 48.237772, 16.331762, 5343585.500000, 598885.062500, 256.100006, -0.342138, -1.084886, -63.255791
1508313292.000000, 48.237772, 16.331762, 5343585.500000, 598885.062500, 256.100006, -0.389783, -1.046313, -63.136124
1508313293.000000, 48.237772, 16.331762, 5343585.500000, 598885.062500, 256.100006, -0.265904, -1.037142, -63.237236
1508313294.000000, 48.237772, 16.331762, 5343585.500000, 598885.062500, 256.100006, -0.326727, -1.092908, -63.183296
1508313295.000000, 48.237772, 16.331762, 5343585.500000, 598885.062500, 256.100006, -0.318989, -1.080043, -63.416332
1508313296.000000, 48.237772, 16.331762, 5343585.500000, 598885.062500, 256.100006, -0.358200, -1.029003, -63.334324
1508313297.000000, 48.237772, 16.331762, 5343585.500000, 598885.062500, 256.100006, -0.307921, -1.056531, -63.231781
1508313298.000000, 48.237772, 16.331762, 5343585.500000, 598885.062500, 256.100006, -0.322322, -1.018698, -63.199047
1508313299.000000, 48.237772, 16.331762, 5343585.500000, 598885.062500, 256.100006, -0.366322, -1.032270, -63.122520
1508313300.000000, 48.237772, 16.331762, 5343585.500000, 598885.062500, 256.100006, -0.394900, -1.072066, -63.129631
1508313301.000000, 48.237772, 16.331762, 5343585.500000, 598885.062500, 256.100006, -0.374644, -1.077649, -63.188976
1508313302.000000, 48.237772, 16.331762, 5343585.500000, 598885.062500, 256.100006, -0.369113, -1.071761, -63.120514
1508313303.000000, 48.237772, 16.331762, 5343585.500000, 598885.062500, 256.100006, -0.391356, -1.071132, -63.123863
1508313304.000000, 48.237773, 16.331762, 5343585.500000, 598885.062500, 256.100006, -0.418537, -1.066364, -63.162971
1508313305.000000, 48.237773, 16.331762, 5343585.500000, 598885.062500, 256.100006, -0.370730, -1.091896, -63.221798
1508313306.000000, 48.237773, 16.331762, 5343585.500000, 598885.062500, 256.100006, -0.370482, -1.048180, -63.337833
1508313307.000000, 48.237773, 16.331762, 5343585.500000, 598885.062500, 256.100006, -0.355661, -1.048478, -63.145287
1508313308.000000, 48.237773, 16.331762, 5343585.500000, 598885.062500, 256.100006, -0.347133, -1.050446, -63.187641
1508313309.000000, 48.237773, 16.331762, 5343585.500000, 598885.062500, 256.100006, -0.349568, -1.053338, -63.384148
1508313310.000000, 48.237773, 16.331762, 5343585.500000, 598885.062500, 256.100006, -0.398476, -1.020478, -63.177357
1508313311.000000, 48.237773, 16.331762, 5343585.500000, 598885.062500, 256.100006, -0.372193, -1.079007, -63.120132
1508313312.000000, 48.237773, 16.331762, 5343585.500000, 598885.062500, 256.100006, -0.340766, -1.078044, -63.127792
1508313313.000000, 48.237773, 16.331762, 5343585.500000, 598885.062500, 256.100006, -0.348932, -1.065827, -63.168980
1508313314.000000, 48.237773, 16.331762, 5343585.500000, 598885.062500, 256.100006, -0.364785, -1.041544, -63.386822
1508313315.000000, 48.237773, 16.331762, 5343585.500000, 598885.062500, 256.100006, -0.326737, -1.028418, -63.174503
1508313316.000000, 48.237773, 16.331762, 5343585.500000, 598885.062500, 256.100006, -0.342537, -1.058659, -63.191139
1508313317.000000, 48.237773, 16.331762, 5343585.500000, 598885.062500, 256.100006, -0.321787, -1.033197, -63.170464
1508313318.000000, 48.237773, 16.331762, 5343585.500000, 598885.062500, 256.100006, -0.387929, -1.028501, -63.327282
1508313319.000000, 48.237773, 16.331762, 5343585.500000, 598885.062500, 256.100006, -0.335076, -1.048071, -63.343307
1508313320.000000, 48.237773, 16.331762, 5343585.500000, 598885.062500, 256.100006, -0.351072, -1.078961, -63.233318
1508313321.000000, 48.237773, 16.331762, 5343585.500000, 598885.062500, 256.100006, -0.351237, -1.065797, -63.128284
1508313322.000000, 48.237773, 16.331762, 5343585.500000, 598885.062500, 256.100006, -0.353926, -1.069672, -63.234997
1508313323.000000, 48.237773, 16.331762, 5343585.500000, 598885.062500, 256.100006, -0.366871, -1.084458, -63.281620
1508313324.000000, 48.237773, 16.331762, 5343585.500000, 598885.062500, 256.100006, -0.348847, -1.027076, -63.121098
1508313325.000000, 48.237773, 16.331762, 5343585.500000, 598885.062500, 256.100006, -0.323683, -1.058504, -63.365879
1508313326.000000, 48.237773, 16.331762, 5343585.500000, 598885.062500, 256.100006, -0.399628, -0.998819, -63.149853
1508313327.000000, 48.237775, 16.331763, 5343586.000000, 598885.187500, 256.299988, -0.381138, -1.084204, -63.161171
1508313328.000000, 48.237777, 16.331768, 5343586.000000, 598885.562500, 256.700012, -0.329670, -1.045209, -63.124512
1508313329.000000, 48.237777, 16.331768, 5343586.000000, 598885.562500, 257.399994, -0.294301, -1.099920, -63.149067
1508313330.000000, 48.237778, 16.331765, 5343586.000000, 598885.312500, 257.700012, -0.333203, -1.080695, -63.163025
1508313331.000000, 48.237783, 16.331763, 5343586.500000, 598885.187500, 257.799988, -0.325549, -1.085898, -63.189114
1508313332.000000, 48.237793, 16.331767, 5343588.000000, 598885.437500, 257.600006, -0.328325, -1.064930, -63.168701
1508313333.000000, 48.237805, 16.331768, 5343589.000000, 598885.500000, 257.799988, -0.326219, -1.065391, -63.370415
1508313334.000000, 48.237820, 16.331773, 5343591.000000, 598885.875000, 258.100006, -0.350241, -1.095958, -63.391632
1508313335.000000, 48.237830, 16.331785, 5343592.000000, 598886.687500, 258.399994, -0.332343, -1.064881, -63.131824
1508313336.000000, 48.237842, 16.331798, 5343593.000000, 598887.687500, 258.399994, -0.348555, -1.067066, -63.191082
1508313337.000000, 48.237845, 16.331808, 5343593.500000, 598888.437500, 258.399994, -0.331040, -1.068269, -63.198372
1508313338.000000, 48.237845, 16.331813, 5343593.500000, 598888.812500, 258.399994, -0.342644, -1.042255, -63.279884
1508313339.000000, 48.237847, 16.331813, 5343594.000000, 598888.750000, 258.600006, -0.327921, -1.074337, -63.208122
1508313340.000000, 48.237855, 16.331827, 5343595.000000, 598889.750000, 258.700012, -0.358103, -1.033451, -63.145802
1508313341.000000, 48.237865, 16.331842, 5343596.000000, 598890.875000, 259.000000, -0.316563, -1.070376, -63.380669
1508313342.000000, 48.237870, 16.331852, 5343596.500000, 598891.562500, 259.399994, -0.300885, -1.071213, -63.358772
1508313343.000000, 48.237878, 16.331848, 5343597.500000, 598891.312500, 259.700012, -0.301415, -1.092555, -63.239517
1508313344.000000, 48.237887, 16.331842, 5343598.500000, 598890.812500, 259.799988, -0.309307, -1.086776, -63.301685
1508313345.000000, 48.237892, 16.331833, 5343599.000000, 598890.187500, 259.799988, -0.384007, -1.081540, -63.124996
1508313346.000000, 48.237895, 16.331832, 5343599.000000, 598890.062500, 259.899994, -0.372533, -1.047769, -63.119938
1508313347.000000, 48.237898, 16.331833, 5343599.500000, 598890.187500, 259.899994, -0.343554, -1.069759, -63.417152
1508313348.000000, 48.237905, 16.331838, 5343600.500000, 598890.500000, 259.799988, -0.347824, -1.086924, -63.231621
1508313349.000000, 48.237913, 16.331837, 5343601.000000, 598890.375000, 259.899994, -0.326770, -1.024849, -63.120895
1508313350.000000, 48.237918, 16.331838, 5343602.000000, 598890.500000, 260.000000, -0.355340, -1.020213, -63.130466
1508313351.000000, 48.237923, 16.331850, 5343602.500000, 598891.375000, 260.399994, -0.355520, -1.051987, -63.228458
1508313352.000000, 48.237922, 16.331850, 5343602.000000, 598891.375000, 260.700012, -0.336981, -1.053775, -63.127110
1508313353.000000, 48.237918, 16.331845, 5343602.000000, 598891.000000, 260.799988, -0.350693, -1.045327, -63.337208
1508313354.000000, 48.237920, 16.331838, 5343602.000000, 598890.500000, 260.600006, -0.368828, -1.050973, -63.128235
1508313355.000000, 48.237920, 16.331832, 5343602.000000, 598890.000000, 260.600006, -0.352371, -1.034943, -63.321564
1508313356.000000, 48.237920, 16.331820, 5343602.000000, 598889.125000, 260.799988, -0.343161, -1.045833, -63.130718
1508313357.000000, 48.237918, 16.331807, 5343602.000000, 598888.125000, 261.100006, -0.355988, -1.039763, -63.312916
1508313358.000000, 48.237917, 16.331800, 5343601.500000, 598887.625000, 261.500000, -0.343951, -1.015912, -63.331387
1508313359.000000, 48.237922, 16.331788, 5343602.000000, 598886.750000, 261.899994, -0.367787, -1.031029, -63.391922
1508313360.000000, 48.237925, 16.331790, 5343602.500000, 598886.875000, 262.299988, -0.369995, -1.053184, -63.392048
1508313361.000000, 48.237928, 16.331793, 5343603.000000, 598887.125000, 262.700012, -0.323081, -1.038590, -63.128380
1508313362.000000, 48.237932, 16.331790, 5343603.000000, 598886.875000, 263.100006, -0.350484, -1.041033, -63.308910
1508313363.000000, 48.237930, 16.331782, 5343603.000000, 598886.250000, 263.600006, -0.336262, -1.087141, -63.386414
1508313364.000000, 48.237930, 16.331782, 5343603.000000, 598886.250000, 263.700012, -0.341344, -1.076169, -63.335888
1508313365.000000, 48.237933, 16.331787, 5343603.500000, 598886.625000, 263.799988, -0.340883, -1.062054, -63.334579
1508313366.000000, 48.237935, 16.331780, 5343603.500000, 598886.125000, 263.899994, -0.366613, -1.052625, -63.320801
1508313367.000000, 48.237933, 16.331770, 5343603.500000, 598885.375000, 264.200012, -0.378878, -1.053511, -63.327019
1508313368.000000, 48.237938, 16.331763, 5343604.000000, 598884.875000, 264.200012, -0.392913, -1.074325, -63.128521
1508313369.000000, 48.237943, 16.331762, 5343604.500000, 598884.750000, 264.500000, -0.343467, -1.090914, -63.130905
1508313370.000000, 48.237950, 16.331757, 5343605.000000, 598884.375000, 264.799988, -0.365905, -1.051012, -63.131031
1508313371.000000, 48.237953, 16.331753, 5343605.500000, 598884.125000, 265.100006, -0.306013, -1.095441, -63.170563
1508313372.000000, 48.237952, 16.331750, 5343605.500000, 598883.875000, 265.200012, -0.318913, -1.048336, -63.239525
1508313373.000000, 48.237953, 16.331738, 5343605.500000, 598883.000000, 265.299988, -0.345814, -1.043005, -63.325237
1508313374.000000, 48.237953, 16.331735, 5343605.500000, 598882.750000, 265.500000, -0.412761, -1.026782, -63.251457
1508313375.000000, 48.237955, 16.331727, 5343605.500000, 598882.125000, 265.700012, -0.358310, -1.087976, -63.181698
1508313376.000000, 48.237965, 16.331735, 5343607.000000, 598882.750000, 265.899994, -0.307423, -1.070888, -63.378769
1508313377.000000, 48.237970, 16.331732, 5343607.500000, 598882.500000, 266.200012, -0.333201, -1.067015, -63.474842
1508313378.000000, 48.237972, 16.331725, 5343607.500000, 598882.000000, 266.500000, -0.372328, -1.063445, -63.396786
1508313379.000000, 48.237972, 16.331722, 5343607.500000, 598881.750000, 266.700012, -0.381070, -1.031166, -63.186428
1508313380.000000, 48.237978, 16.331718, 5343608.500000, 598881.500000, 267.000000, -0.318290, -1.078799, -63.474163
1508313381.000000, 48.237978, 16.331722, 5343608.500000, 598881.750000, 267.299988, -0.368804, -1.045998, -63.238369
1508313382.000000, 48.237982, 16.331723, 5343608.500000, 598881.812500, 267.600006, -0.380313, -1.063165, -63.140228
1508313383.000000, 48.237975, 16.331718, 5343608.000000, 598881.500000, 268.100006, -0.339983, -1.084931, -63.318161
1508313384.000000, 48.237970, 16.331720, 5343607.500000, 598881.625000, 268.500000, -0.341833, -1.064490, -63.438160
1508313385.000000, 48.237963, 16.331710, 5343606.500000, 598880.875000, 268.899994, -0.331948, -1.116756, -63.384739
1508313386.000000, 48.237965, 16.331710, 5343607.000000, 598880.875000, 269.100006, -0.335113, -1.056944, -63.224606
1508313387.000000, 48.237967, 16.331718, 5343607.000000, 598881.500000, 269.500000, -0.313399, -1.067963, -63.365082
1508313388.000000, 48.237968, 16.331720, 5343607.000000, 598881.625000, 269.700012, -0.314964, -1.107549, -63.240875
1508313389.000000, 48.237968, 16.331717, 5343607.000000, 598881.375000, 270.000000, -0.327204, -1.090883, -63.395294
1508313390.000000, 48.237970, 16.331715, 5343607.500000, 598881.250000, 270.299988, -0.333034, -1.046142, -63.205608
1508313391.000000, 48.237965, 16.331708, 5343607.000000, 598880.750000, 270.500000, -0.398764, -1.083597, -63.329945
1508313392.000000, 48.237963, 16.331707, 5343606.500000, 598880.625000, 270.700012, -0.324684, -1.069270, -63.417515
1508313393.000000, 48.237962, 16.331710, 5343606.500000, 598880.875000, 271.000000, -0.261764, -1.094077, -63.552479
1508313394.000000, 48.237968, 16.331712, 5343607.000000, 598881.000000, 271.100006, -0.387053, -1.075561, -63.147472
1508313395.000000, 48.237970, 16.331715, 5343607.500000, 598881.250000, 271.100006, -0.344155, -1.071312, -63.317665
1508313396.000000, 48.237967, 16.331720, 5343607.000000, 598881.625000, 271.100006, -0.363556, -1.043510, -63.150837
1508313397.000000, 48.237963, 16.331713, 5343606.500000, 598881.125000, 271.200012, -0.378020, -1.059187, -63.128445
1508313398.000000, 48.237967, 16.331713, 5343607.000000, 598881.125000, 271.100006, -0.367479, -1.066875, -63.148460
1508313399.000000, 48.237965, 16.331713, 5343607.000000, 598881.125000, 271.100006, -0.358517, -1.092269, -63.318180
1508313400.000000, 48.237965, 16.331708, 5343607.000000, 598880.750000, 271.200012, -0.338118, -1.035994, -63.340069
1508313401.000000, 48.237967, 16.331715, 5343607.000000, 598881.250000, 271.299988, -0.377311, -1.072114, -63.152706
1508313402.000000, 48.237965, 16.331715, 5343607.000000, 598881.250000, 271.399994, -0.379751, -1.023893, -63.128231
1508313403.000000, 48.237967, 16.331715, 5343607.000000, 598881.250000, 271.500000, -0.365804, -1.051188, -63.136684
1508313404.000000, 48.237960, 16.331713, 5343606.500000, 598881.125000, 271.700012, -0.336534, -1.057905, -63.120205
1508313405.000000, 48.237958, 16.331712, 5343606.000000, 598881.000000, 271.899994, -0.370285, -1.062585, -63.323311
1508313406.000000, 48.237957, 16.331710, 5343606.000000, 598880.875000, 271.899994, -0.372439, -1.034235, -63.123566
1508313407.000000, 48.237953, 16.331712, 5343605.500000, 598881.000000, 272.000000, -0.396136, -1.062269, -63.335030
1508313408.000000, 48.237950, 16.331713, 5343605.000000, 598881.125000, 272.399994, -0.361733, -1.074236, -63.180614
1508313409.000000, 48.237947, 16.331718, 5343605.000000, 598881.562500, 272.700012, -0.394702, -1.047265, -63.142601
1508313410.000000, 48.237937, 16.331720, 5343603.500000, 598881.687500, 272.899994, -0.334344, -1.062342, -63.387424
1508313411.000000, 48.237930, 16.331732, 5343603.000000, 598882.562500, 273.100006, -0.304468, -1.097730, -63.486431
1508313412.000000, 48.237928, 16.331737, 5343603.000000, 598882.937500, 273.600006, -0.362092, -1.003691, -63.122753
1508313413.000000, 48.237928, 16.331747, 5343603.000000, 598883.687500, 273.799988, -0.324537, -1.086556, -63.182774
1508313414.000000, 48.237932, 16.331753, 5343603.000000, 598884.187500, 274.100006, -0.378873, -1.054712, -63.126366
1508313415.000000, 48.237925, 16.331750, 5343602.500000, 598883.937500, 274.600006, -0.378235, -1.044322, -63.125961
1508313416.000000, 48.237923, 16.331747, 5343602.000000, 598883.687500, 275.000000, -0.331533, -1.032035, -63.322235
1508313417.000000, 48.237917, 16.331743, 5343601.500000, 598883.437500, 275.700012, -0.363251, -1.118238, -63.383289
1508313418.000000, 48.237900, 16.331740, 5343599.500000, 598883.250000, 276.700012, -0.325208, -1.045569, -63.325768
1508313419.000000, 48.237885, 16.331742, 5343598.000000, 598883.375000, 277.600006, -0.348593, -1.084908, -63.326824
1508313420.000000, 48.237870, 16.331733, 5343596.500000, 598882.812500, 278.600006, -0.381938, -1.059608, -63.342743
1508313421.000000, 48.237857, 16.331725, 5343595.000000, 598882.187500, 279.100006, -0.412359, -1.029066, -63.149261
1508313422.000000, 48.237847, 16.331723, 5343593.500000, 598882.125000, 279.799988, -0.348711, -1.054658, -63.316822
1508313423.000000, 48.237842, 16.331717, 5343593.000000, 598881.625000, 280.200012, -0.355136, -1.103937, -63.427704
1508313424.000000, 48.237828, 16.331708, 5343591.500000, 598881.000000, 280.899994, -0.277186, -1.074910, -63.549305
1508313425.000000, 48.237822, 16.331707, 5343591.000000, 598880.937500, 281.600006, -0.423299, -1.089260, -63.344959
1508313426.000000, 48.237812, 16.331708, 5343590.000000, 598881.062500, 282.000000, -0.368612, -1.090483, -63.393200
1508313427.000000, 48.237803, 16.331705, 5343589.000000, 598880.812500, 282.399994, -0.338017, -1.062084, -63.193268
1508313428.000000, 48.237802, 16.331710, 5343588.500000, 598881.187500, 282.700012, -0.352524, -1.074203, -63.121105
1508313429.000000, 48.237793, 16.331708, 5343587.500000, 598881.062500, 282.700012, -0.362236, -1.083663, -63.385216
1508313430.000000, 48.237783, 16.331715, 5343586.500000, 598881.625000, 282.700012, -0.346363, -1.066353, -63.394756
1508313431.000000, 48.237782, 16.331722, 5343586.500000, 598882.125000, 282.600006, -0.317679, -1.071352, -63.442532
1508313432.000000, 48.237782, 16.331728, 5343586.500000, 598882.625000, 282.600006, -0.372403, -1.066282, -63.327618
1508313433.000000, 48.237780, 16.331727, 5343586.500000, 598882.500000, 282.399994, -0.392233, -1.047517, -63.325954
1508313434.000000, 48.237787, 16.331735, 5343587.000000, 598883.062500, 282.500000, -0.360775, -1.052854, -63.325058
1508313435.000000, 48.237788, 16.331735, 5343587.000000, 598883.062500, 282.700012, -0.408374, -1.080509, -63.332127
1508313436.000000, 48.237788, 16.331738, 5343587.000000, 598883.312500, 282.799988, -0.380457, -1.046562, -63.328262
1508313437.000000, 48.237792, 16.331738, 5343587.500000, 598883.312500, 282.700012, -0.371423, -1.065841, -63.126736
1508313438.000000, 48.237797, 16.331738, 5343588.000000, 598883.312500, 282.799988, -0.351548, -1.085458, -63.251045
1508313439.000000, 48.237802, 16.331743, 5343588.500000, 598883.687500, 283.100006, -0.386312, -1.057466, -63.330311
1508313440.000000, 48.237805, 16.331752, 5343589.000000, 598884.312500, 283.200012, -0.402961, -1.034641, -63.151142
1508313441.000000, 48.237812, 16.331763, 5343590.000000, 598885.125000, 283.399994, -0.353106, -1.090588, -63.444195
1508313442.000000, 48.237813, 16.331775, 5343590.000000, 598886.000000, 283.399994, -0.341916, -1.053080, -63.369564
1508313443.000000, 48.237813, 16.331785, 5343590.000000, 598886.750000, 283.500000, -0.409977, -1.072090, -63.126209
1508313444.000000, 48.237813, 16.331790, 5343590.000000, 598887.125000, 283.500000, -0.314138, -1.097465, -63.497036
1508313445.000000, 48.237808, 16.331788, 5343589.500000, 598887.000000, 283.600006, -0.447325, -1.061495, -63.352787
1508313446.000000, 48.237805, 16.331787, 5343589.000000, 598886.875000, 283.799988, -0.385410, -1.035208, -63.328278
1508313447.000000, 48.237802, 16.331782, 5343589.000000, 598886.500000, 284.100006, -0.380503, -1.062903, -63.373993
1508313448.000000, 48.237795, 16.331778, 5343588.000000, 598886.250000, 284.500000, -0.363238, -1.064173, -63.344654
1508313449.000000, 48.237795, 16.331782, 5343588.000000, 598886.500000, 284.700012, -0.413983, -1.079793, -63.218086
1508313450.000000, 48.237797, 16.331778, 5343588.000000, 598886.250000, 285.000000, -0.424760, -1.064262, -63.161736
1508313451.000000, 48.237800, 16.331778, 5343588.500000, 598886.250000, 285.000000, -0.374418, -1.063465, -63.235294
1508313452.000000, 48.237807, 16.331778, 5343589.500000, 598886.250000, 285.200012, -0.364686, -1.063892, -63.131779
1508313453.000000, 48.237808, 16.331778, 5343589.500000, 598886.250000, 285.399994, -0.410126, -1.059511, -63.375484
1508313454.000000, 48.237805, 16.331777, 5343589.000000, 598886.125000, 285.500000, -0.333637, -1.009244, -63.327030
1508313455.000000, 48.237800, 16.331773, 5343588.500000, 598885.875000, 285.600006, -0.310867, -1.076979, -63.509918
1508313456.000000, 48.237803, 16.331778, 5343589.000000, 598886.250000, 285.600006, -0.368888, -1.042957, -63.379826
1508313457.000000, 48.237807, 16.331777, 5343589.500000, 598886.125000, 285.500000, -0.376123, -0.959857, -63.350422
1508313458.000000, 48.237807, 16.331778, 5343589.500000, 598886.250000, 285.600006, -0.373667, -1.051705, -63.139141
1508313459.000000, 48.237812, 16.331778, 5343590.000000, 598886.250000, 285.600006, -0.352716, -1.030248, -63.287983
1508313460.000000, 48.237808, 16.331772, 5343589.500000, 598885.750000, 285.799988, -0.345903, -1.057851, -63.384533
1508313461.000000, 48.237813, 16.331778, 5343590.000000, 598886.250000, 285.899994, -0.363623, -1.081665, -63.386047
1508313462.000000, 48.237822, 16.331785, 5343591.000000, 598886.750000, 286.200012, -0.366857, -1.063016, -63.383598
1508313463.000000, 48.237822, 16.331778, 5343591.000000, 598886.250000, 286.600006, -0.332934, -1.061287, -63.379391
1508313464.000000, 48.237825, 16.331772, 5343591.500000, 598885.750000, 287.100006, -0.360127, -1.011686, -63.120350
1508313465.000000, 48.237832, 16.331765, 5343592.000000, 598885.250000, 287.700012, -0.377514, -1.020132, -63.135960
1508313466.000000, 48.237838, 16.331765, 5343593.000000, 598885.187500, 288.000000, -0.379206, -1.021534, -63.323357
1508313467.000000, 48.237838, 16.331767, 5343593.000000, 598885.312500, 288.500000, -0.388112, -1.042908, -63.351048
1508313468.000000, 48.237838, 16.331770, 5343593.000000, 598885.562500, 288.799988, -0.349492, -1.020949, -63.138378
1508313469.000000, 48.237838, 16.331768, 5343593.000000, 598885.437500, 289.200012, -0.372502, -1.061015, -63.196609
1508313470.000000, 48.237840, 16.331770, 5343593.000000, 598885.562500, 289.600006, -0.349750, -1.054247, -63.182617
1508313471.000000, 48.237847, 16.331782, 5343594.000000, 598886.437500, 289.899994, -0.410608, -1.050413, -63.156971
1508313472.000000, 48.237845, 16.331783, 5343593.500000, 598886.562500, 290.600006, -0.395805, -1.019554, -63.136890
1508313473.000000, 48.237848, 16.331795, 5343594.000000, 598887.437500, 291.100006, -0.368978, -1.081716, -63.334217
1508313474.000000, 48.237847, 16.331793, 5343594.000000, 598887.312500, 291.500000, -0.371977, -0.983343, -63.331688
1508313475.000000, 48.237843, 16.331787, 5343593.500000, 598886.812500, 292.100006, -0.424246, -1.038999, -63.149899
1508313476.000000, 48.237847, 16.331795, 5343594.000000, 598887.437500, 292.799988, -0.410612, -1.030132, -63.138950
1508313477.000000, 48.237833, 16.331790, 5343592.500000, 598887.062500, 293.200012, -0.372079, -1.044160, -63.151005
1508313478.000000, 48.237823, 16.331785, 5343591.000000, 598886.750000, 294.000000, -0.355033, -1.033985, -63.349106
1508313479.000000, 48.237818, 16.331783, 5343590.500000, 598886.625000, 294.399994, -0.398082, -1.038874, -63.145023
1508313480.000000, 48.237810, 16.331780, 5343589.500000, 598886.375000, 295.000000, -0.354828, -1.026635, -63.143932
1508313481.000000, 48.237802, 16.331777, 5343589.000000, 598886.125000, 295.700012, -0.366353, -1.065613, -63.329250
1508313482.000000, 48.237793, 16.331772, 5343588.000000, 598885.812500, 296.200012, -0.355105, -1.040958, -63.341877
1508313483.000000, 48.237775, 16.331760, 5343586.000000, 598884.937500, 296.899994, -0.348390, -1.051358, -63.425995
1508313484.000000, 48.237768, 16.331757, 5343585.000000, 598884.750000, 297.500000, -0.382566, -1.043120, -63.342327
1508313485.000000, 48.237763, 16.331755, 5343584.500000, 598884.625000, 298.100006, -0.413930, -1.030871, -63.136795
1508313486.000000, 48.237753, 16.331762, 5343583.500000, 598885.125000, 298.799988, -0.388745, -1.028312, -63.122498
1508313487.000000, 48.237750, 16.331768, 5343583.000000, 598885.625000, 299.500000, -0.356919, -1.047318, -63.145370
1508313488.000000, 48.237750, 16.331768, 5343583.000000, 598885.625000, 299.899994, -0.373603, -1.047725, -63.355919
1508313489.000000, 48.237745, 16.331770, 5343582.500000, 598885.750000, 300.399994, -0.429597, -1.013473, -63.180183
1508313490.000000, 48.237735, 16.331765, 5343581.500000, 598885.437500, 301.100006, -0.358220, -1.027098, -63.126732
1508313491.000000, 48.237725, 16.331753, 5343580.000000, 598884.562500, 301.700012, -0.388602, -1.029557, -63.135441
1508313492.000000, 48.237717, 16.331752, 5343579.500000, 598884.437500, 302.399994, -0.369259, -1.058516, -63.318012
1508313493.000000, 48.237710, 16.331748, 5343578.500000, 598884.187500, 303.200012, -0.352349, -1.061403, -63.447842
1508313494.000000, 48.237703, 16.331755, 5343578.000000, 598884.750000, 303.899994, -0.377631, -1.022889, -63.325748
1508313495.000000, 48.237692, 16.331757, 5343576.500000, 598884.875000, 304.500000, -0.377256, -1.010415, -63.143402
1508313496.000000, 48.237685, 16.331760, 5343576.000000, 598885.125000, 304.700012, -0.389306, -1.013141, -63.239372
1508313497.000000, 48.237682, 16.331758, 5343575.500000, 598885.000000, 305.000000, -0.380097, -1.032030, -63.250198
1508313498.000000, 48.237680, 16.331763, 5343575.000000, 598885.375000, 305.500000, -0.354873, -1.055673, -63.142521
1508313499.000000, 48.237675, 16.331768, 5343574.500000, 598885.750000, 305.899994, -0.372078, -1.055115, -63.308189
1508313500.000000, 48.237673, 16.331777, 5343574.500000, 598886.375000, 306.200012, -0.358272, -1.045654, -63.139446
1508313501.000000, 48.237670, 16.331768, 5343574.000000, 598885.750000, 306.500000, -0.347636, -1.016068, -63.128239
1508313502.000000, 48.237663, 16.331767, 5343573.500000, 598885.687500, 306.700012, -0.335587, -1.032740, -63.131149
1508313503.000000, 48.237663, 16.331780, 5343573.500000, 598886.687500, 306.899994, -0.331651, -1.038544, -63.378101
1508313504.000000, 48.237658, 16.331792, 5343573.000000, 598887.562500, 307.299988, -0.341980, -1.036165, -63.129025
1508313505.000000, 48.237653, 16.331790, 5343572.500000, 598887.437500, 307.700012, -0.356647, -1.059131, -63.310173
1508313506.000000, 48.237650, 16.331797, 5343572.000000, 598887.937500, 308.200012, -0.336702, -1.016405, -63.129967
1508313507.000000, 48.237652, 16.331815, 5343572.000000, 598889.250000, 308.600006, -0.416322, -0.997416, -63.147697
1508313508.000000, 48.237653, 16.331832, 5343572.500000, 598890.500000, 308.899994, -0.353368, -1.077211, -63.387623
1508313509.000000, 48.237653, 16.331840, 5343572.500000, 598891.125000, 309.299988, -0.387026, -1.058316, -63.328434
1508313510.000000, 48.237648, 16.331840, 5343572.000000, 598891.125000, 309.700012, -0.370629, -1.011498, -63.138577
1508313511.000000, 48.237652, 16.331840, 5343572.000000, 598891.125000, 310.000000, -0.363292, -1.067218, -63.320835
1508313512.000000, 48.237653, 16.331855, 5343572.500000, 598892.250000, 310.100006, -0.289247, -1.053617, -63.374138
1508313513.000000, 48.237652, 16.331855, 5343572.000000, 598892.250000, 310.299988, -0.346146, -1.061440, -63.178276
1508313514.000000, 48.237643, 16.331853, 5343571.500000, 598892.125000, 310.600006, -0.325703, -1.057205, -63.184345
1508313515.000000, 48.237647, 16.331853, 5343571.500000, 598892.125000, 310.700012, -0.336275, -1.060865, -63.372078
1508313516.000000, 48.237647, 16.331855, 5343571.500000, 598892.250000, 310.899994, -0.355626, -1.027332, -63.141884
1508313517.000000, 48.237642, 16.331850, 5343571.000000, 598891.875000, 311.200012, -0.390226, -1.028164, -63.131748
1508313518.000000, 48.237642, 16.331848, 5343571.000000, 598891.750000, 311.299988, -0.329288, -1.032451, -63.320492
1508313519.000000, 48.237642, 16.331827, 5343571.000000, 598890.187500, 311.299988, -0.352780, -1.032229, -63.147545
1508313520.000000, 48.237642, 16.331798, 5343571.000000, 598888.062500, 311.500000, -0.345210, -1.045200, -63.138248
1508313521.000000, 48.237647, 16.331792, 5343571.500000, 598887.562500, 311.600006, -0.363636, -1.070948, -63.209694
1508313522.000000, 48.237643, 16.331787, 5343571.000000, 598887.187500, 311.899994, -0.345750, -1.053273, -63.326225
1508313523.000000, 48.237643, 16.331795, 5343571.000000, 598887.812500, 312.100006, -0.414788, -1.072750, -63.141483
1508313524.000000, 48.237643, 16.331803, 5343571.000000, 598888.437500, 312.399994, -0.381074, -1.050214, -63.185669
1508313525.000000, 48.237640, 16.331803, 5343571.000000, 598888.437500, 312.899994, -0.364862, -1.021111, -63.135487
1508313526.000000, 48.237640, 16.331787, 5343571.000000, 598887.187500, 313.100006, -0.380693, -1.009761, -63.097771
1508313527.000000, 48.237638, 16.331778, 5343570.500000, 598886.562500, 313.399994, -0.381410, -1.012219, -63.328033
1508313528.000000, 48.237640, 16.331787, 5343571.000000, 598887.187500, 313.799988, -0.360525, -1.025724, -63.346943
1508313529.000000, 48.237638, 16.331803, 5343570.500000, 598888.437500, 314.299988, -0.350912, -1.087868, -63.371635
1508313530.000000, 48.237638, 16.331805, 5343570.500000, 598888.562500, 314.500000, -0.386198, -1.032053, -63.374859
1508313531.000000, 48.237638, 16.331812, 5343570.500000, 598889.062500, 314.799988, -0.382782, -1.048099, -63.320953
1508313532.000000, 48.237637, 16.331815, 5343570.500000, 598889.312500, 315.100006, -0.380555, -1.020892, -63.135536
1508313533.000000, 48.237628, 16.331822, 5343569.500000, 598889.812500, 315.399994, -0.372835, -1.057456, -63.140892
1508313534.000000, 48.237627, 16.331835, 5343569.500000, 598890.812500, 315.600006, -0.388661, -1.048623, -63.324848
1508313535.000000, 48.237630, 16.331848, 5343570.000000, 598891.812500, 315.700012, -0.335754, -1.059461, -63.211029
1508313536.000000, 48.237633, 16.331853, 5343570.000000, 598892.187500, 315.899994, -0.392162, -1.065172, -63.123550
1508313537.000000, 48.237638, 16.331855, 5343570.500000, 598892.250000, 316.299988, -0.318763, -1.063764, -63.235435
1508313538.000000, 48.237643, 16.331858, 5343571.500000, 598892.500000, 316.700012, -0.342104, -1.045017, -63.309841
1508313539.000000, 48.237645, 16.331855, 5343571.500000, 598892.250000, 316.899994, -0.330141, -1.107197, -63.443550
1508313540.000000, 48.237647, 16.331860, 5343571.500000, 598892.625000, 317.200012, -0.344298, -1.031169, -63.194580
1508313541.000000, 48.237647, 16.331843, 5343571.500000, 598891.375000, 317.500000, -0.325666, -1.015877, -63.371803
1508313542.000000, 48.237652, 16.331837, 5343572.000000, 598890.875000, 317.700012, -0.348131, -1.024327, -63.339970
1508313543.000000, 48.237657, 16.331833, 5343572.500000, 598890.625000, 317.899994, -0.352997, -1.032400, -63.150883
1508313544.000000, 48.237653, 16.331835, 5343572.500000, 598890.750000, 318.000000, -0.364762, -1.070223, -63.328972
1508313545.000000, 48.237657, 16.331828, 5343572.500000, 598890.250000, 318.100006, -0.320058, -1.052621, -63.200058
1508313546.000000, 48.237655, 16.331812, 5343572.500000, 598889.000000, 318.299988, -0.364826, -1.052870, -63.171761
1508313547.000000, 48.237658, 16.331802, 5343573.000000, 598888.250000, 318.500000, -0.356342, -1.059941, -63.130348
1508313548.000000, 48.237662, 16.331785, 5343573.000000, 598887.062500, 318.700012, -0.383758, -1.056818, -63.314484
1508313549.000000, 48.237657, 16.331773, 5343572.500000, 598886.187500, 319.100006, -0.356879, -1.067384, -63.216522
1508313550.000000, 48.237648, 16.331760, 5343571.500000, 598885.187500, 319.399994, -0.361139, -1.018669, -63.315231
1508313551.000000, 48.237647, 16.331733, 5343571.500000, 598883.250000, 319.600006, -0.355672, -1.079644, -63.390629
1508313552.000000, 48.237652, 16.331710, 5343572.000000, 598881.500000, 319.799988, -0.332368, -1.017863, -63.162346
1508313553.000000, 48.237647, 16.331690, 5343571.500000, 598880.000000, 320.100006, -0.368584, -1.020208, -63.317657
1508313554.000000, 48.237647, 16.331673, 5343571.500000, 598878.750000, 320.399994, -0.379231, -1.069961, -63.131920
1508313555.000000, 48.237652, 16.331670, 5343572.000000, 598878.500000, 320.799988, -0.397502, -1.031711, -63.129105
1508313556.000000, 48.237645, 16.331683, 5343571.000000, 598879.500000, 321.100006, -0.352041, -1.051064, -63.131397
1508313557.000000, 48.237635, 16.331677, 5343570.000000, 598879.062500, 321.200012, -0.361785, -1.009772, -63.121052
1508313558.000000, 48.237627, 16.331668, 5343569.000000, 598878.437500, 321.399994, -0.334535, -1.033673, -63.311165
1508313559.000000, 48.237623, 16.331678, 5343569.000000, 598879.187500, 321.700012, -0.334037, -1.053449, -63.106327
1508313560.000000, 48.237613, 16.331677, 5343567.500000, 598879.062500, 321.799988, -0.339587, -1.030192, -63.314442
1508313561.000000, 48.237607, 16.331658, 5343567.000000, 598877.750000, 321.799988, -0.370108, -1.062201, -63.318020
1508313562.000000, 48.237602, 16.331658, 5343566.500000, 598877.750000, 322.000000, -0.353626, -1.042528, -63.326954
1508313563.000000, 48.237600, 16.331663, 5343566.000000, 598878.125000, 322.200012, -0.341716, -1.010211, -63.330383
1508313564.000000, 48.237598, 16.331672, 5343566.000000, 598878.750000, 322.299988, -0.416188, -0.998150, -63.059002
1508313565.000000, 48.237600, 16.331682, 5343566.000000, 598879.500000, 322.600006, -0.343425, -1.048444, -63.320724
1508313566.000000, 48.237603, 16.331690, 5343566.500000, 598880.062500, 322.899994, -0.355643, -1.022976, -63.306782
1508313567.000000, 48.237605, 16.331700, 5343567.000000, 598880.812500, 323.299988, -0.361167, -1.034470, -63.334606
1508313568.000000, 48.237607, 16.331695, 5343567.000000, 598880.437500, 323.600006, -0.361363, -1.050774, -63.318264
1508313569.000000, 48.237597, 16.331688, 5343566.000000, 598880.000000, 323.700012, -0.326898, -1.046314, -63.383537
1508313570.000000, 48.237587, 16.331700, 5343565.000000, 598880.875000, 323.799988, -0.391164, -1.006450, -63.172394
1508313571.000000, 48.237587, 16.331713, 5343565.000000, 598881.875000, 324.200012, -0.379277, -1.025106, -63.216145
1508313572.000000, 48.237617, 16.331742, 5343568.000000, 598883.875000, 315.899994, -0.378786, -1.007453, -63.337128
1508313573.000000, 48.237612, 16.331737, 5343567.500000, 598883.562500, 316.200012, -0.330956, -1.024502, -63.332981
1508313574.000000, 48.237612, 16.331733, 5343567.500000, 598883.312500, 316.500000, -0.331469, -1.043933, -63.130707
1508313575.000000, 48.237615, 16.331733, 5343568.000000, 598883.312500, 316.700012, -0.365959, -1.079756, -63.326969
1508313576.000000, 48.237617, 16.331733, 5343568.000000, 598883.312500, 316.899994, -0.403335, -0.995788, -63.208172
1508313577.000000, 48.237613, 16.331755, 5343568.000000, 598884.875000, 317.299988, -0.352608, -1.030846, -63.331184
1508313578.000000, 48.237613, 16.331757, 5343568.000000, 598885.000000, 317.399994, -0.331017, -1.032146, -63.413315
1508313579.000000, 48.237615, 16.331765, 5343568.000000, 598885.625000, 317.399994, -0.348090, -1.040806, -63.136894
1508313580.000000, 48.237613, 16.331767, 5343568.000000, 598885.750000, 317.399994, -0.361297, -1.008391, -63.132477
1508313581.000000, 48.237617, 16.331767, 5343568.000000, 598885.750000, 317.299988, -0.375236, -1.070584, -63.148560
1508313582.000000, 48.237618, 16.331755, 5343568.500000, 598884.875000, 317.200012, -0.317980, -1.019176, -63.388863
1508313583.000000, 48.237623, 16.331733, 5343569.000000, 598883.250000, 317.000000, -0.368080, -1.043748, -63.347519
1508313584.000000, 48.237625, 16.331733, 5343569.000000, 598883.250000, 316.799988, -0.283645, -1.057519, -63.399548
1508313585.000000, 48.237628, 16.331723, 5343569.500000, 598882.500000, 316.899994, -0.358871, -1.032197, -63.128483
1508313586.000000, 48.237635, 16.331715, 5343570.000000, 598881.875000, 317.000000, -0.350500, -1.073747, -63.193050
1508313587.000000, 48.237637, 16.331728, 5343570.500000, 598882.875000, 317.000000, -0.291888, -1.053332, -63.402695
1508313588.000000, 48.237637, 16.331733, 5343570.500000, 598883.250000, 317.000000, -0.366254, -1.059400, -63.135895
1508313589.000000, 48.237643, 16.331750, 5343571.000000, 598884.500000, 317.200012, -0.298738, -1.081187, -63.309277
1508313590.000000, 48.237645, 16.331753, 5343571.500000, 598884.687500, 317.399994, -0.306515, -1.115457, -63.393494
1508313591.000000, 48.237647, 16.331765, 5343571.500000, 598885.562500, 317.700012, -0.383126, -1.071081, -63.402042
1508313592.000000, 48.237650, 16.331780, 5343572.000000, 598886.687500, 318.000000, -0.347728, -1.078096, -63.379745
1508313593.000000, 48.237652, 16.331795, 5343572.000000, 598887.812500, 318.200012, -0.354990, -1.053959, -63.303680
1508313594.000000, 48.237655, 16.331808, 5343572.500000, 598888.750000, 318.399994, -0.337179, -1.051190, -63.130173
1508313595.000000, 48.237660, 16.331823, 5343573.000000, 598889.875000, 318.299988, -0.337801, -1.040437, -63.122162
1508313596.000000, 48.237663, 16.331832, 5343573.500000, 598890.500000, 318.399994, -0.350578, -1.058006, -63.228756
1508313597.000000, 48.237667, 16.331827, 5343574.000000, 598890.125000, 318.500000, -0.370001, -1.065868, -63.186047
1508313598.000000, 48.237667, 16.331830, 5343574.000000, 598890.375000, 318.500000, -0.338550, -1.053586, -63.328011
1508313599.000000, 48.237663, 16.331818, 5343573.500000, 598889.500000, 318.500000, -0.402483, -1.060812, -63.353588
1508313600.000000, 48.237662, 16.331808, 5343573.000000, 598888.750000, 318.299988, -0.398417, -1.029210, -63.422729
1508313601.000000, 48.237660, 16.331812, 5343573.000000, 598889.000000, 318.299988, -0.296427, -1.048494, -63.443905
1508313602.000000, 48.237657, 16.331830, 5343572.500000, 598890.375000, 318.100006, -0.358786, -1.034579, -63.331970
1508313603.000000, 48.237658, 16.331868, 5343573.000000, 598893.250000, 318.000000, -0.334468, -1.070094, -63.304310
1508313604.000000, 48.237660, 16.331878, 5343573.000000, 598893.937500, 317.799988, -0.375334, -1.051912, -63.321587
1508313605.000000, 48.237678, 16.331898, 5343575.000000, 598895.437500, 311.700012, -0.373183, -1.037219, -63.335777
1508313606.000000, 48.237690, 16.331917, 5343576.500000, 598896.750000, 306.799988, -0.347488, -1.054982, -63.377712
1508313607.000000, 48.237690, 16.331917, 5343576.500000, 598896.750000, 307.000000, -0.324743, -1.070003, -63.386650
1508313608.000000, 48.237682, 16.331938, 5343575.500000, 598898.375000, 307.299988, -0.338598, -1.067642, -63.373871
1508313609.000000, 48.237673, 16.331933, 5343574.500000, 598898.000000, 307.799988, -0.372684, -1.031196, -63.353958
1508313610.000000, 48.237672, 16.331928, 5343574.500000, 598897.625000, 308.200012, -0.336787, -1.062593, -63.448433
1508313611.000000, 48.237668, 16.331935, 5343574.000000, 598898.187500, 308.399994, -0.360950, -1.029661, -63.339497
1508313612.000000, 48.237672, 16.331943, 5343574.500000, 598898.750000, 308.399994, -0.334767, -1.076197, -63.368610
1508313613.000000, 48.237687, 16.331962, 5343576.000000, 598900.125000, 304.200012, -0.381759, -1.063400, -63.254860
1508313614.000000, 48.237698, 16.331973, 5343577.500000, 598900.937500, 300.799988, -0.343106, -1.058443, -63.229927
1508313615.000000, 48.237698, 16.331985, 5343577.500000, 598901.812500, 300.799988, -0.341000, -1.046550, -63.314220
1508313616.000000, 48.237698, 16.331992, 5343577.500000, 598902.312500, 297.799988, -0.372482, -1.073815, -63.339409
1508313617.000000, 48.237697, 16.332005, 5343577.500000, 598903.312500, 298.000000, -0.345891, -1.074811, -63.405937
1508313618.000000, 48.237692, 16.332025, 5343577.000000, 598904.812500, 298.100006, -0.382680, -1.094263, -63.405418
1508313619.000000, 48.237690, 16.332058, 5343576.500000, 598907.250000, 298.299988, -0.375075, -1.023291, -63.424755
1508313620.000000, 48.237685, 16.332062, 5343576.000000, 598907.500000, 298.500000, -0.346603, -1.033854, -63.131802
1508313621.000000, 48.237683, 16.332083, 5343576.000000, 598909.125000, 298.700012, -0.354009, -1.077992, -63.178997
1508313622.000000, 48.237682, 16.332092, 5343576.000000, 598909.750000, 298.700012, -0.357488, -1.075662, -63.243839
1508313623.000000, 48.237675, 16.332102, 5343575.000000, 598910.500000, 298.700012, -0.370630, -1.037335, -63.120792
1508313624.000000, 48.237670, 16.332110, 5343574.500000, 598911.125000, 298.700012, -0.361052, -1.044171, -63.327419
1508313625.000000, 48.237677, 16.332130, 5343575.500000, 598912.625000, 296.100006, -0.367736, -1.061404, -63.352242
1508313626.000000, 48.237687, 16.332150, 5343576.500000, 598914.062500, 293.700012, -0.301550, -1.054906, -63.368965
1508313627.000000, 48.237687, 16.332138, 5343576.500000, 598913.250000, 293.899994, -0.376226, -1.055831, -63.262535
1508313628.000000, 48.237695, 16.332127, 5343577.500000, 598912.312500, 294.000000, -0.365136, -1.088057, -63.180256
1508313629.000000, 48.237700, 16.332110, 5343578.000000, 598911.062500, 294.100006, -0.376116, -1.048883, -63.140430
1508313630.000000, 48.237707, 16.332107, 5343578.500000, 598910.812500, 294.200012, -0.319016, -1.086377, -63.386021
1508313631.000000, 48.237717, 16.332118, 5343580.000000, 598911.687500, 294.399994, -0.382295, -1.025133, -63.153603
1508313632.000000, 48.237725, 16.332140, 5343580.500000, 598913.250000, 294.500000, -0.371236, -1.081395, -63.167091
1508313633.000000, 48.237720, 16.332122, 5343580.000000, 598911.937500, 294.600006, -0.391136, -1.038374, -63.161953
1508313634.000000, 48.237725, 16.332112, 5343580.500000, 598911.187500, 294.600006, -0.381748, -1.068724, -63.315498
1508313635.000000, 48.237723, 16.332115, 5343580.500000, 598911.437500, 294.500000, -0.369851, -1.063579, -63.430050
1508313636.000000, 48.237722, 16.332108, 5343580.500000, 598910.937500, 294.200012, -0.357744, -1.034159, -63.145885
1508313637.000000, 48.237725, 16.332113, 5343580.500000, 598911.312500, 294.399994, -0.336512, -1.062343, -63.118092
1508313638.000000, 48.237727, 16.332108, 5343581.000000, 598910.937500, 295.000000, -0.361316, -1.077749, -63.383972
1508313639.000000, 48.237733, 16.332115, 5343581.500000, 598911.375000, 295.399994, -0.368859, -1.055212, -63.262630
1508313640.000000, 48.237728, 16.332115, 5343581.000000, 598911.437500, 296.000000, -0.342109, -1.095479, -63.197586
1508313641.000000, 48.237730, 16.332112, 5343581.000000, 598911.125000, 295.799988, -0.307364, -1.036525, -63.407871
